{
    "cities":
    [{
        "id": 1,
        "name": "Singapore",
        "state_id": 4651,
        "state_code": "01",
        "state_name": "Central Singapore",
        "country_id": 199,
        "country_code": "SG",
        "country_name": "Singapore",
        "latitude": "1.28967000",
        "longitude": "103.85007000",
        "wikiDataId": "Q191698"
    },
    {
        "id": 2,
        "name": "Paris",
        "state_id": 4796,
        "state_code": "IDF",
        "state_name": "Île-de-France",
        "country_id": 75,
        "country_code": "FR",
        "country_name": "France",
        "latitude": "48.85340000",
        "longitude": "2.34860000",
        "wikiDataId": "Q90"
    },
    {
        "id": 3,
        "name": "London",
        "state_id": 2336,
        "state_code": "ENG",
        "state_name": "England",
        "country_id": 232,
        "country_code": "GB",
        "country_name": "United Kingdom",
        "latitude": "51.50853000",
        "longitude": "-0.12574000",
        "wikiDataId": "Q84"
    },
    {
        "id": 4,
        "name": "New York City",
        "state_id": 1452,
        "state_code": "NY",
        "state_name": "New York",
        "country_id": 233,
        "country_code": "US",
        "country_name": "United States",
        "latitude": "40.71427000",
        "longitude": "-74.00597000",
        "wikiDataId": "Q60"
    },
    {
        "id": 5,
        "name": "Tokyo",
        "state_id": 823,
        "state_code": "13",
        "state_name": "Tokyo",
        "country_id": 109,
        "country_code": "JP",
        "country_name": "Japan",
        "latitude": "35.68950000",
        "longitude": "139.69171000",
        "wikiDataId": "Q207309"
    },
    {
        "id": 6,
        "name": "Rome",
        "state_id": 1455,
        "state_code": "GA",
        "state_name": "Georgia",
        "country_id": 233,
        "country_code": "US",
        "country_name": "United States",
        "latitude": "34.25704000",
        "longitude": "-85.16467000",
        "wikiDataId": "Q6580"
    },
    {
        "id": 7,
        "name": "Dubai",
        "state_id": 3391,
        "state_code": "DU",
        "state_name": "Dubai",
        "country_id": 231,
        "country_code": "AE",
        "country_name": "United Arab Emirates",
        "latitude": "25.06570000",
        "longitude": "55.17128000",
        "wikiDataId": "Q6742405"
    },
    {
        "id": 8,
        "name": "Bangkok",
        "state_id": 3554,
        "state_code": "10",
        "state_name": "Bangkok",
        "country_id": 219,
        "country_code": "TH",
        "country_name": "Thailand",
        "latitude": "13.75398000",
        "longitude": "100.50144000",
        "wikiDataId": "Q1861"
    },
    {
        "id": 9,
        "name": "Barcelona",
        "state_id": 2050,
        "state_code": "B",
        "state_name": "Anzoátegui",
        "country_id": 239,
        "country_code": "VE",
        "country_name": "Venezuela",
        "latitude": "10.13625000",
        "longitude": "-64.68618000",
        "wikiDataId": "Q391221"
    },
    {
        "id": 10,
        "name": "Kuala Lumpur",
        "state_id": 1949,
        "state_code": "14",
        "state_name": "Kuala Lumpur",
        "country_id": 132,
        "country_code": "MY",
        "country_name": "Malaysia",
        "latitude": "3.14120000",
        "longitude": "101.68653000",
        "wikiDataId": "Q1865"
    },
    {
        "id": 11,
        "name": "Amsterdam",
        "state_id": 2612,
        "state_code": "NH",
        "state_name": "North Holland",
        "country_id": 156,
        "country_code": "NL",
        "country_name": "Netherlands",
        "latitude": "52.37403000",
        "longitude": "4.88969000",
        "wikiDataId": "Q727"
    },
    {
        "id": 12,
        "name": "Prague",
        "state_id": 4598,
        "state_code": "10",
        "state_name": "Praha, Hlavní město",
        "country_id": 58,
        "country_code": "CZ",
        "country_name": "Czech Republic",
        "latitude": "50.08804000",
        "longitude": "14.42076000",
        "wikiDataId": "Q1085"
    },
    {
        "id": 13,
        "name": "Seoul",
        "state_id": 3849,
        "state_code": "11",
        "state_name": "Seoul",
        "country_id": 116,
        "country_code": "KR",
        "country_name": "South Korea",
        "latitude": "37.56600000",
        "longitude": "126.97840000",
        "wikiDataId": "Q8684"
    },
    {
        "id": 14,
        "name": "Las Vegas",
        "state_id": 1423,
        "state_code": "NM",
        "state_name": "New Mexico",
        "country_id": 233,
        "country_code": "US",
        "country_name": "United States",
        "latitude": "35.59393000",
        "longitude": "-105.22390000",
        "wikiDataId": "Q676171"
    },
    {
        "id": 15,
        "name": "Miami",
        "state_id": 1407,
        "state_code": "TX",
        "state_name": "Texas",
        "country_id": 233,
        "country_code": "US",
        "country_name": "United States",
        "latitude": "35.69143000",
        "longitude": "-100.63819000",
        "wikiDataId": "Q776624"
    },
    {
        "id": 16,
        "name": "Berlin",
        "state_id": 3010,
        "state_code": "BE",
        "state_name": "Berlin",
        "country_id": 82,
        "country_code": "DE",
        "country_name": "Germany",
        "latitude": "52.52437000",
        "longitude": "13.41053000",
        "wikiDataId": "Q64"
    },
    {
        "id": 17,
        "name": "Venice",
        "state_id": 1753,
        "state_code": "34",
        "state_name": "Veneto",
        "country_id": 107,
        "country_code": "IT",
        "country_name": "Italy",
        "latitude": "45.43713000",
        "longitude": "12.33265000",
        "wikiDataId": "Q18438779"
    },
    {
        "id": 18,
        "name": "Sydney",
        "state_id": 3909,
        "state_code": "NSW",
        "state_name": "New South Wales",
        "country_id": 14,
        "country_code": "AU",
        "country_name": "Australia",
        "latitude": "-33.86785000",
        "longitude": "151.20732000",
        "wikiDataId": "Q3130"
    },
    {
        "id": 19,
        "name": "Madrid",
        "state_id": 1158,
        "state_code": "M",
        "state_name": "Madrid",
        "country_id": 207,
        "country_code": "ES",
        "country_name": "Spain",
        "latitude": "40.41650000",
        "longitude": "-3.70256000",
        "wikiDataId": "Q2807"
    },
    {
        "id": 20,
        "name": "Moscow",
        "state_id": 1901,
        "state_code": "MOW",
        "state_name": "Moscow",
        "country_id": 182,
        "country_code": "RU",
        "country_name": "Russia",
        "latitude": "55.75222000",
        "longitude": "37.61556000",
        "wikiDataId": "Q649"
    },
    {
        "id": 21,
        "name": "Rio de Janeiro",
        "state_id": 1997,
        "state_code": "RJ",
        "state_name": "Rio de Janeiro",
        "country_id": 31,
        "country_code": "BR",
        "country_name": "Brazil",
        "latitude": "-22.92008000",
        "longitude": "-43.33069000",
        "wikiDataId": "Q1760134"
    },
    {
        "id": 22,
        "name": "Cairo",
        "state_id": 3223,
        "state_code": "C",
        "state_name": "Cairo",
        "country_id": 65,
        "country_code": "EG",
        "country_name": "Egypt",
        "latitude": "30.06263000",
        "longitude": "31.24967000",
        "wikiDataId": "Q85"
    },
    {
        "id": 23,
        "name": "Bali",
        "state_id": 4014,
        "state_code": "RJ",
        "state_name": "Rajasthan",
        "country_id": 101,
        "country_code": "IN",
        "country_name": "India",
        "latitude": "25.19725000",
        "longitude": "73.29117000",
        "wikiDataId": "Q632862"
    },
    {
        "id": 24,
        "name": "Osaka",
        "state_id": 859,
        "state_code": "27",
        "state_name": "Ōsaka Prefecture",
        "country_id": 109,
        "country_code": "JP",
        "country_name": "Japan",
        "latitude": "34.69374000",
        "longitude": "135.50218000",
        "wikiDataId": "Q35765"
    },
    {
        "id": 25,
        "name": "Kyoto",
        "state_id": 834,
        "state_code": "26",
        "state_name": "Kyōto Prefecture",
        "country_id": 109,
        "country_code": "JP",
        "country_name": "Japan",
        "latitude": "35.02107000",
        "longitude": "135.75385000",
        "wikiDataId": "Q34600"
    },
    {
        "id": 26,
        "name": "Havana",
        "state_id": 272,
        "state_code": "03",
        "state_name": "Havana Province",
        "country_id": 56,
        "country_code": "CU",
        "country_name": "Cuba",
        "latitude": "23.13302000",
        "longitude": "-82.38304000",
        "wikiDataId": "Q1563"
    }]
}